city,lat,long
Tokyo,35.685,139.7514
New York,40.6943,-73.9249
Mexico City,19.4424,-99.131
Mumbai,19.017,72.857
São Paulo,-23.5587,-46.625
Delhi,28.67,77.23
Shanghai,31.2165,121.4365
Kolkata,22.495,88.324700000000007
Los Angeles,34.1139,-118.4068
Dhaka,23.7231,90.4086
Buenos Aires,-34.6025,-58.3975
Karachi,24.87,66.99
Cairo,30.05,31.25
Rio de Janeiro,-22.925,-43.225
Ōsaka,34.75,135.4601
Beijing,39.9289,116.3883
Manila,14.6042,120.9822
Moscow,55.7522,37.6155
Istanbul,41.105,29.01
Paris,48.8667,2.3333
Seoul,37.5663,126.9997
Lagos,6.4433,3.3915
Jakarta,-6.1744,106.8294
Guangzhou,23.145,113.325
Chicago,41.8373,-87.6862
London,51.5,-0.1167
Lima,-12.048,-77.0501
Tehran,35.6719,51.4243
Kinshasa,-4.3297,15.315
Bogotá,4.5964,-74.0833
Shenzhen,22.5524,114.1221
Wuhan,30.58,114.27
Hong Kong,22.305,114.185
Tianjin,39.13,117.2
Chennai,13.09,80.28
Taipei,25.0358,121.5683
Bengalūru,12.97,77.56
Bangkok,13.75,100.5166
Lahore,31.56,74.35
Chongqing,29.565,106.595
Miami,25.7839,-80.2102
Hyderabad,17.4,78.48
Dallas,32.7936,-96.7662
Santiago,-33.45,-70.667
Philadelphia,40.0077,-75.1339
Belo Horizonte,-19.915,-43.915
Madrid,40.4,-3.6834
Houston,29.7869,-95.3905
Ahmadābād,23.0301,72.58
Ho Chi Minh City,10.78,106.695
Washington,38.9047,-77.0163
Atlanta,33.7627,-84.4225
Toronto,43.7,-79.42
Singapore,1.293,103.8558
Luanda,-8.8383,13.2344
Baghdad,33.3386,44.3939
Barcelona,41.3833,2.1834
Hāora,22.5804,88.3299
Shenyang,41.805,123.45
Khartoum,15.5881,32.5342
Pune,18.53,73.85
Boston,42.3188,-71.0846
Sydney,-33.92,151.1852
Saint Petersburg,59.939,30.316
Chittagong,22.33,91.8
Dongguan,23.0489,113.7447
Riyadh,24.6408,46.7727
Hanoi,21.0333,105.85
Guadalajara,20.67,-103.33
Melbourne,-37.82,144.975
Alexandria,31.2,29.95
Chengdu,30.67,104.07
Rangoon,16.7834,96.1667
Phoenix,33.5722,-112.0891
Xi’an,34.275,108.895
Porto Alegre,-30.05,-51.2
Sūrat,21.2,72.84
Hechi,23.0965,109.6091
Abidjan,5.32,-4.04
Brasília,-15.7833,-47.9161
Ankara,39.9272,32.8644
Monterrey,25.67,-100.33
Yokohama,35.32,139.58
Nanjing,32.05,118.78
Montréal,45.5,-73.5833
Guiyang,26.58,106.72
Recife,-8.0756,-34.9156
Seattle,47.6211,-122.3244
Harbin,45.75,126.65
San Francisco,37.7562,-122.443
Fortaleza,-3.75,-38.58
Zhangzhou,24.5204,117.67
Detroit,42.3834,-83.1024
Salvador,-12.97,-38.48
Busan,35.0951,129.01
Johannesburg,-26.17,28.03
Berlin,52.5218,13.4015
Algiers,36.7631,3.0506
Rome,41.896,12.4833
Pyongyang,39.0194,125.7547
Medellín,6.275,-75.575
Kabul,34.5167,69.1833
Athens,37.9833,23.7333
Nagoya,35.155,136.915
Cape Town,-33.92,18.435
San Diego,32.8312,-117.1225
Changchun,43.865,125.34
Casablanca,33.6,-7.6164
Dalian,38.9228,121.6298
Cawnpore,26.46,80.32
Kano,12,8.52
Tel Aviv-Yafo,32.08,34.77
Addis Ababa,9.0333,38.7
Curitiba,-25.42,-49.32
Zibo,36.8,118.05
Jeddah,21.5169,39.2192
Nairobi,-1.2833,36.8167
Hangzhou,30.25,120.17
Benoni,-26.1496,28.3299
Caracas,10.501,-66.917
Milan,45.47,9.205
Stuttgart,48.78,9.2
Kunming,25.07,102.68
Dar es Salaam,-6.8,39.2683
Minneapolis,44.9635,-93.2678
Jaipur,26.9211,75.81
Taiyuan,37.875,112.5451
Frankfurt,50.1,8.675
Qingdao,36.09,120.33
Surabaya,-7.2492,112.7508
Lisbon,38.7227,-9.1449
Tampa,27.9942,-82.4451
Jinan,36.675,116.995
Fukuoka,33.595,130.41
Campinas,-22.9,-47.1
Denver,39.7621,-104.8759
Kaohsiung,22.6333,120.2666
Quezon City,14.6504,121.03
Katowice,50.2604,19.02
Aleppo,36.23,37.17
Durban,-29.865,30.98
Kyiv,50.4334,30.5166
Lucknow,26.855,80.915
Giza,30.01,31.19
Zhengzhou,34.755,113.6651
Taichung,24.1521,120.6817
Brooklyn,40.6501,-73.9496
Ibadan,7.38,3.93
Faisalabad,31.41,73.11
Fuzhou,26.08,119.3
Changsha,28.2,112.97
Dakar,14.7158,-17.4731
İzmir,38.4361,27.1518
Xiangtan,27.8504,112.9
Lanzhou,36.056,103.792
Incheon,37.4761,126.6422
Sapporo,43.075,141.34
Xiamen,24.45,118.08
Guayaquil,-2.22,-79.92
George Town,5.4136,100.3294
Mashhad,36.27,59.57
Damascus,33.5,36.3
Daegu,35.8668,128.607
Nāgpur,21.17,79.09
Lianshan,40.7503,120.83
Shijiazhuang,38.05,114.48
Tunis,36.8028,10.1797
Vienna,48.2,16.3666
Jilin,43.85,126.55
Omdurman,15.6167,32.48
Bandung,-6.95,107.57
Bekasi,-6.2173,106.9723
Mannheim,49.5004,8.47
Nanchang,28.68,115.88
Wenzhou,28.02,120.6501
Queens,40.7498,-73.7976
Vancouver,49.2734,-123.1216
Birmingham,52.475,-1.92
Cali,3.4,-76.5
Naples,40.84,14.245
Sendai,38.2871,141.0217
Manchester,53.5004,-2.248
Puebla,19.05,-98.2
Tripoli,32.8925,13.18
Tashkent,41.3117,69.2949
Havana,23.132,-82.3642
Gaoping,30.7804,106.13
Baltimore,39.3051,-76.6144
Nanning,22.82,108.32
Belém,-1.45,-48.48
Patna,25.625,85.13
Santo Domingo,18.4701,-69.9001
Ürümqi,43.805,87.575
Zaozhuang,34.88,117.57
Baku,40.3953,49.8622
Accra,5.55,-0.2167
Yantai,37.5304,121.4
Medan,3.58,98.65
Santa Cruz,-17.7539,-63.226
Tongshan,34.28,117.18
Riverside,33.9381,-117.3948
Linyi,35.08,118.33
St. Louis,38.6358,-90.2451
Las Vegas,36.2333,-115.2654
Maracaibo,10.73,-71.66
Kuwait City,29.3697,47.9783
Ad Dammām,26.4282,50.0997
Portland,45.5371,-122.65
Haikou,20.05,110.32
Hiroshima,34.3878,132.4429
Baotou,40.6522,109.822
Hefei,31.85,117.28
Indore,22.7151,75.865
Goiânia,-16.72,-49.3
Sanaa,15.3547,44.2066
San Antonio,29.4658,-98.5254
Port-au-Prince,18.541,-72.336
Haiphong,20.83,106.6801
Suzhou,33.6361,116.9789
Nanyang,33.0004,112.53
Bucharest,44.4334,26.0999
Ningbo,29.88,121.55
Douala,4.0604,9.71
Tangshan,39.6243,118.1944
Tainan,23,120.2
Xiping,40.08,113.3
Asunción,-25.2964,-57.6415
Saidu Sharif,34.75,72.35
Brisbane,-27.455,153.0351
Rawalpindi,33.6,73.04
Sacramento,38.5667,-121.4683
Beirut,33.872,35.5097
San Jose,37.3021,-121.8489
Minsk,53.9,27.5666
Kyōto,35.03,135.75
Barranquilla,10.96,-74.8
Orlando,28.4772,-81.3369
Shuyangzha,34.1299,118.7734
Valencia,10.23,-67.98
Hamburg,53.55,10
Vadodara,22.31,73.18
Manaus,-3.1,-60
Shangqiu,34.4504,115.65
Wuxi,31.58,120.3
Palembang,-2.98,104.75
Brussels,50.8333,4.3333
Essen,51.45,7.0166
Cleveland,41.4767,-81.6805
Bhopal,23.25,77.41
Hohhot,40.82,111.66
Pittsburgh,40.4396,-79.9763
Luoyang,34.68,112.4701
Santos,-23.9537,-46.3329
Jingling,30.6501,113.16
Warsaw,52.25,21
Rabat,34.0253,-6.8361
Vitória,-20.324,-40.366
Quito,-0.215,-78.5001
Antananarivo,-18.9166,47.5166
Coimbatore,11,76.95
Daqing,46.58,125
Lu’an,31.7503,116.48
Sanzhou,30.82,108.4
Budapest,47.5,19.0833
Turin,45.0704,7.67
Suzhou,31.3005,120.62
Ludhiāna,30.9278,75.8723
Cincinnati,39.1412,-84.506
Kumasi,6.69,-1.63
Manhattan,40.7834,-73.9662
Qiqihar,47.345,123.99
Anshan,41.115,122.94
Austin,30.3006,-97.7517
Zhongli,24.965,121.2168
Handan,36.58,114.48
Tai’an,36.2,117.1201
Eşfahān,32.7,51.7
Kansas City,39.1239,-94.5541
Yaoundé,3.8667,11.5167
Shantou,23.37,116.67
Āgra,27.1704,78.015
Zhanjiang,21.2,110.38
La Paz,-16.498,-68.15
Kalyān,19.2502,73.1602
Abuja,9.0833,7.5333
Harare,-17.8178,31.0447
Indianapolis,39.7771,-86.1458
Xiantao,30.3704,113.44
Khulna,22.84,89.56
Weifang,36.7204,119.1001
Tijuana,32.5,-117.08
Santiago,19.5,-70.67
Xinyang,32.1304,114.07
Luzhou,28.88,105.38
Perth,-31.955,115.84
Toluca,19.3304,-99.67
Vishākhapatnam,17.73,83.305
Leeds,53.83,-1.58
Kōbe,34.68,135.17
Columbus,39.986,-82.9851
Multan,30.2,71.455
Kochi,10.015,76.2239
Montevideo,-34.858,-56.1711
Gujranwala,32.1604,74.185
Niterói,-22.9,-43.1
Ganzhou,25.92,114.95
Florence,43.78,11.25
Liuzhou,24.28,109.25
Bamako,12.65,-8
Conakry,9.5315,-13.6802
Bursa,40.2,29.07
León de los Aldama,21.15,-101.7
Virginia Beach,36.7335,-76.0435
Nāsik,20.0004,73.78
Fushun,41.8654,123.87
Changde,29.03,111.68
Daejeon,36.3355,127.425
Charlotte,35.2079,-80.8304
Phnom Penh,11.55,104.9166
Neijiang,29.5804,105.05
Quanzhou,24.9,118.58
Kharkiv,50,36.25
Hyderabad City,25.38,68.375
Bronx,40.8501,-73.8662
Lomé,6.1319,1.2228
Córdoba,-31.4,-64.1823
Huainan,32.63,116.98
Doha,25.2866,51.533
Kuala Lumpur,3.1667,101.7
Maputo,-25.9553,32.5892
Kaduna,10.52,7.44
Gwangju,35.171,126.9104
Kawanakajima,35.53,139.705
San Salvador,13.71,-89.203
Suining,30.5333,105.5333
Lyon,45.77,4.83
Karaj,35.8004,50.97
Kampala,0.3167,32.5833
Tabrīz,38.0863,46.3012
The Hague,52.08,4.27
Davao,7.11,125.63
Marseille,43.29,5.375
Meerut,29.0004,77.7
Mianyang,31.47,104.77
Semarang,-6.9666,110.42
Farīdābād,28.4333,77.3167
Novosibirsk,55.03,82.96
Mecca,21.43,39.82
Dubai,25.23,55.28
Milwaukee,43.0642,-87.9673
Auckland,-36.8481,174.763
Ma’anshan,31.7304,118.48
Brazzaville,-4.2592,15.2847
Yiyang,28.6004,112.33
Vārānasi,25.33,83
Lubumbashi,-11.68,27.48
Juárez,31.6904,-106.49
Ghāziābād,28.6604,77.4084
Pretoria,-25.7069,28.2294
Heze,35.23,115.45
Porto,41.15,-8.62
Āsansol,23.6833,86.9833
Lusaka,-15.4166,28.2833
Changzhou,31.78,119.97
Mosul,36.345,43.145
Yekaterinburg,56.85,60.6
Peshawar,34.005,71.535
Mandalay,21.97,96.085
Jamshedpur,22.7875,86.1975
Mbuji-Mayi,-6.15,23.6
Madura,9.92,78.12
Adana,36.995,35.32
Sheffield,53.3667,-1.5
Jabalpur,23.1751,79.9551
San José,9.935,-84.0841
Panama City,8.968,-79.533
Nizhniy Novgorod,56.333,44.0001
Chifeng,42.27,118.95
Duisburg,51.43,6.75
Munich,48.1299,11.575
Huaiyin,33.58,119.03
Stockholm,59.3508,18.0973
Makassar,-5.14,119.432
Rājkot,22.31,70.8
Dhanbād,23.8004,86.42
Mudanjiang,44.575,129.59
Geneva,46.21,6.14
Shīrāz,29.63,52.57
Huzhou,30.8704,120.1
Beidao,34.6,105.92
Shuangshui,26.5944,104.8333
Düsseldorf,51.2204,6.78
Gaozhou,21.9204,110.87
Sevilla,37.405,-5.98
Amritsar,31.64,74.87
Vila Velha,-20.3676,-40.318
Vila Velha,3.2167,-51.2167
Almaty,43.325,76.915
Providence,41.823,-71.4187
Warangal,18.01,79.58
Rosario,-32.9511,-60.6663
Allahābād,25.455,81.84
Benin City,6.3405,5.62
Jining,35.4004,116.55
Maceió,-9.62,-35.73
Sofia,42.6833,23.3167
Abbottabad,34.1495,73.1995
Benghazi,32.1167,20.0667
Cilacap,-7.7188,109.0154
Prague,50.0833,14.466
Glasgow,55.8744,-4.2507
Leshan,29.5671,103.7333
Jacksonville,30.3322,-81.6749
Ouagadougou,12.3703,-1.5247
Ottawa,45.4167,-75.7
Adelaide,-34.935,138.6
Shangrao,28.4704,117.97
Torreón,25.5701,-103.42
Srīnagar,34.1,74.815
Bezwāda,16.52,80.63
Samara,53.195,50.1513
Omsk,54.99,73.4
Newcastle,-32.8453,151.815
Yulin,22.63,110.15
Namp’o,38.7669,125.4524
Xianyang,34.3456,108.7147
Cagayan de Oro,8.4508,124.6853
Cần Thơ,10.05,105.77
Barquisimeto,10.05,-69.3
Helsinki,60.1756,24.9341
Kazan’,55.7499,49.1263
Aurangābād,19.8957,75.3203
Calgary,51.083,-114.08
Ciudad Nezahualcóyotl,19.41,-99.03
Zürich,47.38,8.55
Baoding,38.8704,115.48
Zigong,29.4,104.78
Sharjah,25.3714,55.4065
Yerevan,40.1812,44.5136
Mogadishu,2.0667,45.3667
Tbilisi,41.725,44.7908
Ankang,32.68,109.02
Huambo,-12.75,15.76
Ikare,7.5304,5.76
Belgrade,44.818600000000004,20.468
Salt Lake City,40.7774,-111.93
Bhilai,21.2167,81.4333
Jinhua,29.12,119.65
Chelyabinsk,55.155,61.4387
Natal,-5.78,-35.24
Dushanbe,38.56,68.7739
Copenhagen,55.6786,12.5635
Changwon,35.2191,128.5836
Zhuzhou,27.83,113.15
Suwon,37.2578,127.0109
Nashville,36.1715,-86.7843
Vereeniging,-26.6496,27.96
Xiangyang,32.02,112.13
Memphis,35.1046,-89.9773
Ulsan,35.5467,129.317
Amman,31.95,35.9333
Mizhou,35.99,119.3801
Richmond,37.5295,-77.4756
Dublin,53.3331,-6.2489
Edmonton,53.55,-113.5
Solāpur,17.6704,75.9
Rostov-na-Donu,47.2346,39.7127
Dnipro,48.48,35
Xining,36.62,101.77
Zhangjiakou,40.83,114.93
Lille,50.65,3.08
Ranchi,23.37,85.33
Gaziantep,37.075,37.385
Monrovia,6.3106,-10.8048
São Luís,-2.516,-44.266
Amsterdam,52.35,4.9166
Jerusalem,31.7784,35.2066
New Orleans,30.0687,-89.9288
Guatemala City,14.6211,-90.527
Zhuhai,22.2769,113.5678
Florianópolis,-27.58,-48.52
Port Elizabeth,-33.97,25.6
Jiamusi,46.83,130.35
Port Harcourt,4.81,7.01
Raleigh,35.8324,-78.6438
Ufa,54.79,56.04
Hengyang,26.88,112.59
Benxi,41.3304,123.75
Louisville,38.1663,-85.6485
Haifa,32.8204,34.98
Medina,24.5,39.58
Bucaramanga,7.1301,-73.1259
Maracay,10.2469,-67.5958
Rotterdam,51.92,4.48
Homs,34.73,36.72
Cologne,50.93,6.95
Qinhuangdao,39.9304,119.62
Fès,34.0546,-5.0004
Aden,12.7797,45.0095
Cochabamba,-17.41,-66.17
Yongzhou,26.2304,111.62
Baoshan,25.12,99.15
Quảng Hà,16.06,108.25
